,City,Cloudiness,Country,Date,Humidity,Lat,Lng,Max Temp,Wind Speed
0,qaanaaq,100,GL,1563081516,62,77.48,-69.36,279.697,4.96
1,jalu,0,LY,1563081415,49,29.03,21.55,300.297,3.79
2,provideniya,0,RU,1563081535,72,64.42,-173.23,287.197,2.77
3,tual,74,ID,1563081535,79,-5.67,132.75,298.497,8.53
4,cape town,0,ZA,1563081194,100,-33.93,18.42,288.15,4.1
5,puerto ayora,0,EC,1563081536,85,-0.74,-90.35,294.26,0.89
6,touros,40,BR,1563081537,100,-5.2,-35.46,296.15,2.1
7,rikitea,0,PF,1563081538,83,-23.12,-134.97,296.997,3.27
8,new norfolk,75,AU,1563081538,65,-42.78,147.06,280.15,8.7
9,kwinana,0,AU,1563081427,48,-32.25,115.77,292.04,5.1
10,punta arenas,90,CL,1563081539,93,-53.16,-70.91,275.15,4.6
11,kawalu,44,ID,1563081540,57,-7.38,108.21,298.297,3.61
12,popondetta,78,PG,1563081540,83,-8.77,148.24,295.397,1.14
13,pindiga,85,NG,1563081541,87,9.98,10.93,296.197,2.12
14,lorengau,87,PG,1563081541,75,-2.02,147.27,301.397,3.6
15,saint-pierre,20,FR,1563081542,93,48.95,4.24,286.15,3.6
16,carballo,75,ES,1563081543,88,43.21,-8.69,292.59,1.5
17,ushuaia,90,AR,1563081543,80,-54.81,-68.31,278.15,5.7
18,avarua,62,CK,1563081545,68,-21.21,-159.78,295.15,2.6
19,yagodnoye,17,RU,1563081545,22,62.52,149.63,299.797,6.11
20,bluff,33,AU,1563081545,28,-23.58,149.07,291.197,4.72
21,flin flon,49,CA,1563081546,94,54.77,-101.88,286.097,3.37
22,baykit,93,RU,1563081546,82,61.68,96.39,289.597,2.66
23,palmer,90,AU,1563081547,71,-34.85,139.16,287.59,8.7
24,coihaique,0,CL,1563081548,93,-45.58,-72.07,275.15,2.1
25,pisco,12,PE,1563081548,82,-13.71,-76.2,288.15,1.5
26,kaitangata,100,NZ,1563081549,71,-46.28,169.85,280.37,3.13
27,daru,89,PG,1563081549,86,-9.07,143.21,298.097,4.11
28,saint george,75,GR,1563081550,78,39.45,22.34,296.15,2.6
29,negombo,20,LK,1563081550,70,7.21,79.83,303.15,3.6
30,jamestown,100,AU,1563081302,78,-33.21,138.6,282.997,7.08
31,kvarkeno,96,RU,1563081551,33,52.08,59.73,303.597,4.52
32,chokurdakh,74,RU,1563081552,63,70.62,147.9,284.697,2.81
33,thompson,90,CA,1563081552,100,55.74,-97.86,287.15,1.5
34,cabo san lucas,5,MX,1563081497,69,22.89,-109.91,301.48,5.1
35,atuona,16,PF,1563081553,76,-9.8,-139.03,300.397,8.77
36,cherskiy,93,RU,1563081554,60,68.75,161.3,284.097,6.11
37,saint-philippe,40,CA,1563081555,93,45.36,-73.48,292.59,3.6
38,georgetown,20,GY,1563081555,94,6.8,-58.16,297.15,1.0
39,portland,75,US,1563081433,83,43.66,-70.25,294.82,1.13
40,muskogee,1,US,1563081406,83,35.75,-95.37,301.15,2.6
41,chuy,68,UY,1563081562,83,-33.69,-53.46,283.497,4.21
42,pendleton,1,US,1563081569,94,34.65,-82.78,297.04,2.1
43,alto araguaia,0,BR,1563081570,60,-17.32,-53.22,290.797,1.05
44,beyneu,82,KZ,1563081570,31,45.32,55.19,306.497,5.02
45,ilhabela,9,BR,1563081571,67,-23.78,-45.36,296.297,3.43
46,hobart,75,AU,1563081366,65,-42.88,147.33,280.15,8.7
47,port hedland,0,AU,1563081572,15,-20.31,118.58,300.15,8.7
48,nikolskoye,20,RU,1563081572,67,59.7,30.79,289.26,2.0
49,bereda,75,ES,1563081319,88,43.27,-7.54,292.59,1.0
50,busselton,0,AU,1563081573,41,-33.64,115.35,290.37,7.09
51,severo-kurilsk,0,RU,1563081574,94,50.68,156.12,280.697,4.46
52,esperance,40,AU,1563081574,67,-33.86,121.89,287.15,3.6
53,longyearbyen,75,NO,1563081575,75,78.22,15.63,278.15,5.7
54,deputatskiy,98,RU,1563081575,81,69.3,139.9,287.397,5.25
55,bredasdorp,0,ZA,1563081576,93,-34.53,20.04,281.48,2.6
56,port alfred,0,ZA,1563081576,90,-33.59,26.89,285.93,1.79
57,geraldton,5,CA,1563081577,87,49.72,-86.95,285.15,1.5
58,barrow,2,AR,1563081577,71,-38.31,-60.23,279.197,4.22
59,souillac,0,FR,1563081578,63,45.6,-0.6,290.93,3.1
60,bethel,75,US,1563081578,72,60.79,-161.76,291.15,2.6
61,port elizabeth,1,US,1563081579,88,39.31,-74.98,297.59,2.75
62,kieta,100,PG,1563081580,79,-6.22,155.63,299.597,2.84
63,hithadhoo,3,MV,1563081580,75,-0.6,73.08,302.097,6.22
64,elizabethtown,1,US,1563081581,83,40.15,-76.6,296.48,2.1
65,mandalgovi,29,MN,1563081581,23,45.76,106.27,301.797,5.8
66,yarmouth,90,CA,1563081582,100,43.84,-66.12,288.71,3.6
67,prince rupert,90,CA,1563081582,87,54.32,-130.32,289.15,1.0
68,saskylakh,0,RU,1563081583,43,71.97,114.09,286.597,6.9
69,castro,90,CL,1563081583,100,-42.48,-73.76,281.15,7.2
70,la ronge,40,CA,1563081584,100,55.1,-105.3,287.15,1.56
71,ugoofaaru,68,MV,1563081372,71,5.67,73.0,301.597,1.94
72,santa maria da boa vista,32,BR,1563081585,79,-8.8,-39.83,293.897,3.73
73,pevek,100,RU,1563081586,95,69.7,170.27,274.097,3.83
74,buala,100,SB,1563081586,84,-8.15,159.59,298.897,2.29
75,lano,83,NG,1563081586,88,10.17,11.47,295.797,4.06
76,kruisfontein,0,ZA,1563081587,68,-34.0,24.73,285.597,3.88
77,port blair,75,IN,1563081540,70,11.67,92.75,304.15,4.1
78,broken hill,0,AU,1563081588,47,-31.97,141.45,286.15,7.7
79,verkhnyaya inta,100,RU,1563081589,91,65.99,60.32,288.097,6.89
80,bourail,81,NC,1563081589,78,-21.57,165.5,292.997,2.56
81,mataura,79,NZ,1563081518,94,-46.19,168.86,280.37,1.79
82,arlit,0,NE,1563081590,21,18.74,7.39,306.597,3.38
83,lasa,20,CY,1563081552,57,34.92,32.53,300.15,2.6
84,laguna,20,BZ,1563081591,88,16.17,-88.94,299.15,0.84
85,kaeo,67,NZ,1563081592,91,-35.1,173.78,285.37,2.24
86,nanortalik,84,GL,1563081592,90,60.14,-45.24,277.197,1.23
87,grindavik,75,IS,1563081593,93,63.84,-22.43,285.37,2.6
88,ponta delgada,75,PT,1563081593,94,37.73,-25.67,294.15,2.6
89,albany,90,US,1563081594,93,42.65,-73.75,296.48,2.37
90,aykhal,40,RU,1563081595,52,65.95,111.51,293.15,2.0
91,maragogi,36,BR,1563081304,94,-9.01,-35.22,294.497,1.29
92,lebu,90,ET,1563081596,87,8.96,38.73,285.15,3.1
93,tautira,75,PF,1563081597,83,-17.73,-149.15,298.71,1.5
94,annau,40,TM,1563081597,55,37.89,58.52,304.15,4.1
95,san quintin,90,PH,1563081598,69,17.54,120.52,303.297,3.11
96,hay river,75,CA,1563081598,62,60.82,-115.79,288.15,4.1
97,fort nelson,75,CA,1563081599,63,58.81,-122.69,291.15,3.1
98,ribeira grande,93,PT,1563081599,69,38.52,-28.7,294.197,4.0
99,zunyi,98,CN,1563081600,67,27.73,106.92,299.797,1.85
100,ouro preto do oeste,2,BR,1563081600,66,-10.75,-62.22,294.997,0.75
101,torbay,90,CA,1563081601,100,47.66,-52.73,285.37,3.6
102,hilo,90,US,1563081601,61,19.71,-155.08,300.15,3.1
103,lichinga,0,MZ,1563081602,58,-13.3,35.25,292.197,1.47
104,salta,75,AR,1563081352,93,-24.79,-65.41,286.15,3.1
105,lavrentiya,0,RU,1563081603,63,65.58,-170.99,289.897,4.04
106,thetford mines,55,CA,1563081604,89,46.09,-71.3,290.37,3.26
107,seoul,20,KR,1563081144,48,37.57,126.98,304.15,0.5
108,henties bay,0,NA,1563081605,98,-22.12,14.28,283.71,1.34
109,tasiilaq,33,GL,1563081605,100,65.61,-37.64,276.15,3.1
110,lao cai,100,VN,1563081606,86,22.48,103.95,295.997,2.37
111,luganville,75,VU,1563081606,74,-15.51,167.18,301.15,3.6
112,berezovyy,100,RU,1563081607,81,51.67,135.7,293.097,1.12
113,kapaa,40,US,1563081601,78,22.08,-159.32,301.15,6.7
114,naze,79,NG,1563081608,96,5.43,7.07,295.297,0.91
115,tiznit,0,MA,1563081608,93,29.7,-9.73,292.597,2.31
116,namibe,0,AO,1563081609,85,-15.19,12.15,292.297,4.04
117,sunrise manor,1,US,1563081610,12,36.21,-115.07,310.15,6.46
118,batagay,100,RU,1563081610,91,67.65,134.64,288.897,3.24
119,oistins,40,BB,1563081579,74,13.07,-59.53,300.15,5.7
120,east london,0,ZA,1563081611,93,-33.02,27.91,281.15,2.6
121,kavieng,33,PG,1563081611,75,-2.57,150.8,301.597,4.24
122,sitka,0,US,1563081612,76,37.17,-99.65,295.37,4.31
123,khatanga,0,RU,1563081396,39,71.98,102.47,289.797,2.9
124,cidreira,100,BR,1563081613,94,-30.17,-50.22,285.897,3.02
125,dikson,40,RU,1563081534,93,73.51,80.55,273.697,1.79
126,usinsk,100,RU,1563081614,70,66.0,57.56,291.497,4.67
127,palmeira,60,BR,1563081615,97,-25.43,-50.0,283.15,2.1
128,mehamn,100,NO,1563081615,84,71.03,27.85,279.597,4.62
129,sola,71,TZ,1563081616,53,-3.17,33.8,295.197,3.27
130,lata,33,IN,1563081616,88,30.78,78.62,282.597,3.94
131,dalby,18,AU,1563081617,24,-27.18,151.26,288.15,7.2
132,camacha,75,PT,1563081617,94,33.08,-16.33,294.15,4.6
133,klaksvik,100,FO,1563081617,100,62.23,-6.59,282.15,2.1
134,pangai,21,TO,1563081618,77,-19.8,-174.35,295.697,10.61
135,codrington,0,AU,1563081619,25,-28.95,153.24,291.15,3.6
136,cockburn town,0,TC,1563081620,76,21.46,-71.14,301.197,7.3
137,clyde river,90,CA,1563081620,76,70.47,-68.59,283.15,9.3
138,sechura,67,PE,1563081621,87,-5.56,-80.82,290.897,3.84
139,fowa,82,NG,1563081621,93,8.92,6.4,295.597,1.83
140,vapnyarka,80,UA,1563081622,82,48.53,28.74,288.15,1.52
141,najran,0,SA,1563081622,18,17.54,44.22,300.15,3.1
142,chama,0,ZM,1563081623,50,-11.22,33.16,291.697,0.78
143,yellowknife,75,CA,1563081616,66,62.45,-114.38,286.15,1.0
144,hermanus,0,ZA,1563081624,98,-34.42,19.24,283.71,0.45
145,gat,20,SN,1563081625,88,14.69,-16.54,298.15,4.6
146,parczew,0,PL,1563081625,87,51.64,22.9,288.15,1.5
147,gravdal,44,NO,1563081626,81,59.79,5.78,285.37,8.7
148,san ramon de la nueva oran,72,AR,1563081627,81,-23.13,-64.33,288.997,1.09
149,cabadiangan,75,PH,1563081628,66,10.45,123.98,303.15,5.7
150,canar,97,EC,1563081433,93,-2.55,-78.93,294.82,1.0
151,sibu,75,MY,1563081629,66,2.29,111.83,304.15,2.1
152,seymchan,79,RU,1563081629,24,62.93,152.39,302.697,4.38
153,qandala,70,SO,1563081630,52,11.47,49.87,305.097,11.5
154,carnarvon,0,ZA,1563081631,27,-30.97,22.13,283.797,4.36
155,barth,75,DE,1563081631,82,54.37,12.73,289.82,3.6
156,havoysund,100,NO,1563081632,75,71.0,24.66,281.15,4.6
157,berezniki,100,RU,1563081632,63,59.41,56.8,297.04,1.34
158,sioux lookout,20,CA,1563081390,93,50.1,-91.92,293.15,2.1
159,abadan,0,IR,1563081640,27,30.36,48.26,304.15,3.1
160,saint-augustin,75,CA,1563081640,100,45.63,-73.98,291.48,1.5
161,champerico,75,MX,1563081641,78,16.38,-93.6,298.15,1.5
162,babahoyo,20,EC,1563081641,83,-1.8,-79.53,295.15,5.1
163,salalah,90,OM,1563081642,100,17.01,54.1,299.15,3.1
164,teguise,75,ES,1563081643,94,29.06,-13.56,294.15,6.7
165,te horo,89,NZ,1563081643,66,-40.81,175.12,286.48,8.7
166,vao,76,EE,1563081644,62,59.1,26.19,288.697,1.41
167,tuktoyaktuk,75,CA,1563081644,67,69.44,-133.03,287.15,3.6
168,kununurra,0,AU,1563081645,22,-15.77,128.74,299.15,6.7
169,arraial do cabo,22,BR,1563081646,69,-22.97,-42.02,293.897,1.98
170,malacky,75,SK,1563081646,82,48.43,17.02,290.93,3.6
171,tiksi,71,RU,1563081647,59,71.64,128.87,281.597,6.85
172,husavik,15,CA,1563081647,91,50.56,-96.99,293.71,0.89
173,narsaq,73,GL,1563081601,61,60.91,-46.05,283.15,2.1
174,christchurch,96,NZ,1563081648,50,-43.53,172.64,287.15,2.1
175,tecoanapa,75,MX,1563081649,79,16.99,-99.26,302.15,1.34
176,atherton,70,AU,1563081649,41,-17.27,145.48,298.15,8.7
177,iqaluit,20,CA,1563081650,93,63.75,-68.52,277.15,2.6
178,harderwijk,90,NL,1563081650,82,52.35,5.63,288.15,1.5
179,sao joao da barra,0,BR,1563081651,76,-21.64,-41.05,289.597,1.65
180,naustdal,46,NO,1563081651,71,61.51,5.72,285.37,6.2
181,tongliao,71,CN,1563081652,40,43.61,122.27,302.197,1.89
182,port moresby,90,PG,1563081652,83,-9.47,147.16,299.15,6.2
183,igarka,66,RU,1563081653,55,67.47,86.57,293.197,4.84
184,vaini,75,IN,1563081524,83,15.34,74.49,298.15,3.1
185,dunedin,100,NZ,1563081654,77,-45.87,170.5,280.37,10.28
186,bhadohi,100,IN,1563081654,55,25.39,82.57,306.15,5.1
187,santa ines,75,EC,1563081655,87,-0.82,-78.63,282.15,2.6
188,west bay,40,CA,1563081655,63,49.34,-123.21,293.15,3.1
189,ancud,90,CL,1563081656,100,-41.87,-73.83,281.15,7.2
190,paita,88,PE,1563081656,91,-5.09,-81.11,290.997,5.34
191,havre-saint-pierre,90,CA,1563081608,100,50.23,-63.6,286.15,2.6
192,shitanjing,97,CN,1563081657,28,39.23,106.34,302.59,1.34
193,codajas,70,BR,1563081658,91,-3.84,-62.06,295.397,0.45
194,syracuse,1,US,1563081471,88,43.05,-76.15,295.37,3.03
195,rodez,0,FR,1563081659,76,44.35,2.57,291.48,0.7
196,petukhovo,0,RU,1563081659,61,55.06,67.89,297.897,5.49
197,akdagmadeni,53,TR,1563081660,58,39.66,35.88,290.297,1.66
198,ystad,75,SE,1563081661,100,55.43,13.82,289.26,2.1
199,ponta do sol,1,BR,1563081661,65,-20.63,-46.0,288.397,0.77
200,los llanos de aridane,90,ES,1563081662,69,28.66,-17.92,296.15,5.1
201,nanyang,0,CN,1563081663,41,33.0,112.53,306.697,2.9
202,mahebourg,40,MU,1563081663,56,-20.41,57.7,296.15,3.6
203,ust-karsk,19,RU,1563081664,26,52.71,118.82,301.297,2.04
204,hambantota,40,LK,1563081664,74,6.12,81.12,304.15,6.7
205,bilibino,75,RU,1563081665,54,68.06,166.44,292.897,3.58
206,bintulu,75,MY,1563081665,66,3.17,113.03,305.15,3.1
207,mogadishu,100,SO,1563081433,79,2.04,45.34,298.797,6.66
208,port augusta,90,AU,1563081666,62,-32.49,137.76,287.15,5.1
209,fairbanks,75,US,1563081611,56,64.84,-147.72,296.15,2.1
210,coahuayana,100,MX,1563081667,89,18.62,-100.35,295.697,1.57
211,parintins,22,BR,1563081668,89,-2.63,-56.73,295.897,1.44
212,dublin,20,IE,1563081399,100,53.35,-6.26,283.71,3.1
213,vestmanna,100,FO,1563081669,100,62.16,-7.17,282.15,2.1
214,vihti,0,FI,1563081670,66,60.42,24.32,287.59,2.1
215,iquitos,75,PE,1563081670,94,-3.75,-73.25,295.15,1.5
216,saldanha,0,PT,1563081671,81,41.42,-6.55,290.697,0.65
217,butaritari,6,KI,1563081672,66,3.07,172.79,302.197,2.17
218,airai,51,TL,1563081540,49,-8.93,125.41,300.797,0.6
219,marsh harbour,3,BS,1563081672,74,26.54,-77.06,301.497,5.04
220,almaznyy,0,RU,1563081673,82,48.03,40.04,291.15,2.55
221,aasiaat,90,GL,1563081673,86,68.71,-52.87,278.897,3.2
222,brewster,1,US,1563081674,83,41.76,-70.08,295.93,3.6
223,little current,1,CA,1563081675,82,45.98,-81.93,290.15,3.1
224,mingguang,2,CN,1563081675,40,32.78,118.01,306.997,0.98
225,hasaki,75,JP,1563081676,94,35.73,140.83,295.15,6.7
226,tuatapere,80,NZ,1563081676,94,-46.13,167.69,280.37,3.13
227,beringovskiy,45,RU,1563081677,72,63.05,179.32,290.997,2.52
228,constitucion,100,MX,1563081678,74,23.99,-104.67,292.04,1.34
229,havelock,1,US,1563081614,78,34.88,-76.9,299.15,1.5
230,derzhavinsk,0,KZ,1563081679,31,51.1,66.31,302.997,5.26
231,necochea,3,AR,1563081679,96,-38.55,-58.74,274.82,1.34
232,kavaratti,93,IN,1563081679,72,10.57,72.64,301.997,6.8
233,mecca,25,SA,1563081680,32,21.43,39.83,306.897,4.63
234,poum,30,MK,1563081680,85,41.28,20.71,287.197,1.3
235,broome,53,GB,1563081681,93,52.47,1.45,288.15,1.5
236,tessalit,0,ML,1563081682,45,20.2,1.01,302.097,1.33
237,progreso,75,UY,1563081682,93,-34.68,-56.22,283.71,3.2
238,pasighat,100,IN,1563081683,99,28.06,95.33,294.397,1.04
239,monzon,0,IT,1563081683,76,46.45,11.69,288.71,1.51
240,komsomolskiy,100,RU,1563081684,93,67.55,63.78,288.597,6.15
241,hualmay,86,PE,1563081684,84,-11.1,-77.61,289.797,6.85
242,kahului,20,US,1563081685,54,20.89,-156.47,302.15,9.8
243,venado tuerto,64,AR,1563081685,95,-33.75,-61.97,279.26,0.45
244,merrill,40,US,1563081685,49,42.03,-121.6,294.15,5.7
245,westport,1,US,1563081686,83,41.14,-73.36,297.59,2.6
246,mumford,21,GH,1563081686,98,5.26,-0.76,293.497,1.48
247,constantine,20,DZ,1563081687,43,36.36,6.61,295.15,1.85
248,verkhoyansk,91,RU,1563081688,72,67.55,133.39,293.797,6.32
249,fortuna,0,ES,1563081689,83,38.18,-1.13,297.59,3.6
250,pacific grove,40,US,1563081690,82,36.62,-121.92,293.15,3.1
251,isangel,75,VU,1563081690,74,-19.55,169.27,300.15,3.1
252,buraydah,0,SA,1563081691,30,26.33,43.97,301.15,2.1
253,upernavik,11,GL,1563081691,73,72.79,-56.15,281.097,3.34
254,port-cartier,90,CA,1563081692,100,50.03,-66.88,287.04,3.1
255,mayo,75,CA,1563081692,37,63.59,-135.9,294.15,1.16
256,pailon,20,BO,1563081693,88,-17.66,-62.72,296.15,4.1
257,hailun,55,CN,1563081693,56,47.46,126.97,299.097,5.17
258,solnechnyy,89,RU,1563081694,59,50.72,136.64,296.797,2.81
259,meridian,75,US,1563081694,39,43.61,-116.39,304.15,3.85
260,oussouye,99,SN,1563081695,78,12.49,-16.54,299.097,3.7
261,big rapids,1,US,1563081695,82,43.7,-85.48,293.15,2.28
262,soc trang,20,VN,1563081696,66,9.6,105.98,306.15,5.1
263,kalmunai,98,LK,1563081696,41,7.42,81.82,308.597,1.21
264,kampong thum,100,KH,1563081697,78,12.71,104.89,298.397,0.99
265,coquimbo,0,CL,1563081697,70,-29.95,-71.34,282.15,1.5
266,luchow,61,DE,1563081698,93,52.97,11.15,288.71,2.1
267,labuan,75,BN,1563081698,70,5.28,115.24,303.15,1.5
268,nacozari,7,MX,1563081699,63,25.34,-108.26,301.48,0.96
269,gamba,97,CN,1563081699,40,28.28,88.52,286.197,5.95
270,ravar,15,IR,1563081700,8,31.27,56.81,306.497,4.03
271,soure,90,PT,1563081701,88,40.06,-8.63,293.15,1.5
272,virginia beach,1,US,1563081437,100,36.85,-75.98,299.82,3.9
273,abha,0,SA,1563081702,25,18.22,42.5,296.15,3.52
274,the hammocks,75,US,1563081702,83,25.67,-80.44,302.59,3.1
275,tacuati,69,PY,1563081703,53,-23.46,-56.74,295.797,1.89
276,lagoa,0,PT,1563081704,88,37.14,-8.45,292.59,4.6
277,oktyabrskiy,84,RU,1563081705,77,55.61,37.97,289.15,1.0
278,glens falls,20,US,1563081705,77,43.31,-73.64,296.48,2.28
279,luba,90,PH,1563081706,69,17.32,120.7,303.297,3.11
280,nassau,40,AT,1563081706,77,46.81,15.34,293.71,1.0
281,atasu,0,KZ,1563081707,27,48.68,71.64,301.797,6.37
282,cabinda,75,AO,1563081708,88,-5.56,12.19,295.15,5.17
283,guiren,75,TW,1563081708,70,22.97,120.29,305.15,4.1
284,krasnoarmeysk,0,RU,1563081709,93,56.12,38.15,289.15,1.97
285,ialibu,76,PG,1563081709,82,-6.28,143.99,294.197,1.36
286,tagusao,100,PH,1563081710,89,9.19,117.81,298.297,8.5
287,mapimi,40,MX,1563081710,31,25.82,-103.85,304.15,2.6
288,mnogovershinnyy,100,RU,1563081711,54,53.94,139.92,295.297,0.92
289,kudryashovskiy,0,RU,1563081711,51,55.1,82.77,300.15,5.0
290,bandarbeyla,99,SO,1563081712,44,9.49,50.81,304.097,15.23
291,pachino,0,IT,1563081497,94,36.72,15.09,295.37,0.5
292,katsuura,75,JP,1563081713,94,33.93,134.5,297.04,4.1
293,kitimat,75,CA,1563081713,72,54.02,-128.69,291.15,7.2
294,samarai,100,PG,1563081714,92,-10.62,150.67,297.097,3.29
295,alice springs,0,AU,1563081517,30,-23.7,133.88,288.15,6.2
296,cabedelo,75,BR,1563081715,100,-6.97,-34.84,296.15,3.1
297,kyren,100,RU,1563081715,81,51.68,102.13,288.697,3.08
298,makaryev,30,RU,1563081716,53,57.88,43.81,291.097,1.7
299,sabha,0,LY,1563081716,32,27.03,14.43,302.697,5.31
300,leningradskiy,100,RU,1563081522,96,69.38,178.42,275.597,4.78
301,iraan,1,US,1563081717,53,30.91,-101.9,300.37,2.6
302,katobu,50,ID,1563081718,52,-4.94,122.53,302.597,2.57
303,namatanai,97,PG,1563081718,83,-3.66,152.44,299.697,4.41
304,gazanjyk,14,TM,1563081719,52,39.24,55.52,304.397,8.37
305,brownsville,75,US,1563081610,79,25.91,-97.49,302.15,7.7
306,blagoyevo,3,RU,1563081720,36,63.37,47.92,293.797,1.08
307,sarangani,100,PH,1563081628,81,5.4,125.46,299.097,5.26
308,luderitz,0,NA,1563081721,100,-26.65,15.16,281.15,1.5
309,hamilton,20,CA,1563081461,73,43.26,-79.87,296.15,5.1
310,goderich,0,CA,1563081721,79,43.74,-81.71,292.04,3.13
311,cap malheureux,40,MU,1563081722,56,-19.98,57.61,296.15,3.6
312,japura,81,ID,1563081723,57,-0.42,102.29,304.497,1.39
313,vanimo,34,PG,1563081723,75,-2.67,141.3,301.397,5.11
314,caravelas,0,BR,1563081724,91,-17.73,-39.27,292.397,2.61
315,garissa,51,KE,1563081724,59,-0.46,39.64,299.197,8.87
316,vallenar,86,CL,1563081725,67,-28.58,-70.76,280.697,0.78
317,azangaro,0,PE,1563081726,53,-14.91,-70.2,273.697,0.46
318,morros,20,BR,1563081726,83,-2.87,-44.04,299.15,3.6
319,yerbogachen,11,RU,1563081727,36,61.28,108.01,300.397,2.56
320,ilulissat,41,GL,1563081727,75,69.22,-51.1,281.15,1.73
321,mar del plata,1,AR,1563081441,72,-46.43,-67.52,277.097,4.98
322,lokoja,42,NG,1563081728,93,7.8,6.74,294.797,1.33
323,kaoma,0,ZM,1563081728,58,-14.8,24.8,284.797,3.95
324,riyadh,0,SA,1563081561,10,24.63,46.72,304.15,3.1
325,norman wells,40,CA,1563081730,59,65.28,-126.83,291.15,1.5
326,tewksbury,1,US,1563081460,73,42.61,-71.23,297.04,1.97
327,vidor,40,US,1563081731,83,30.13,-94.02,298.15,3.6
328,anloga,40,GH,1563081732,94,5.79,0.9,297.15,2.6
329,nuuk,65,GL,1563081733,81,64.17,-51.74,283.15,2.6
330,poya,27,NC,1563081733,73,-21.35,165.16,295.097,4.07
331,mount gambier,90,AU,1563081734,76,-37.83,140.78,285.15,11.8
332,bayan,99,CN,1563081735,70,36.1,102.26,286.697,1.74
333,sheopur,73,IN,1563081735,44,25.67,76.7,307.897,6.35
334,faanui,20,PF,1563081736,75,-16.48,-151.75,298.897,3.19
335,ulladulla,17,AU,1563081736,46,-35.36,150.48,285.15,12.3
336,bua yai,100,TH,1563081737,55,15.59,102.43,305.597,6.01
337,abu dhabi,5,AE,1563081707,49,24.47,54.37,307.15,5.7
338,santiago del estero,100,AR,1563081738,76,-27.8,-64.26,288.197,3.17
339,labuhan,81,ID,1563081738,38,-2.54,115.51,305.397,1.68
340,roma,0,IT,1563081621,77,41.89,12.48,296.48,3.1
341,vila,40,IT,1563081739,63,45.18,8.4,295.37,2.6
342,bereznik,18,RU,1563081740,57,62.86,42.71,289.897,1.8
343,santa isabel do rio negro,73,BR,1563081740,93,-0.41,-65.02,295.197,0.9
344,teahupoo,75,PF,1563081741,83,-17.83,-149.27,298.71,1.5
345,bacalar,25,MX,1563081741,86,18.68,-88.39,298.897,1.79
346,bacolod,100,PH,1563081742,76,10.68,122.95,301.197,5.67
347,goba,100,ET,1563081742,88,7.01,39.97,283.897,1.39
348,moron,1,HT,1563081743,80,18.56,-74.26,299.297,1.47
349,jacareacanga,49,BR,1563081743,73,-6.22,-57.76,295.997,0.7
350,north bend,90,US,1563081744,93,43.41,-124.22,290.93,5.7
351,bambous virieux,40,MU,1563081744,56,-20.34,57.76,296.15,3.6
352,cravo norte,100,CO,1563081745,95,6.3,-70.2,296.297,1.89
353,aswan,0,EG,1563081745,24,24.09,32.9,305.15,3.1
354,camocim,0,BR,1563081746,90,-2.9,-40.84,294.497,2.65
355,salisbury,7,GB,1563081747,87,51.07,-1.8,288.15,3.1
356,tigil,67,RU,1563081747,64,57.8,158.67,292.397,5.62
357,albina,23,GF,1563081748,99,5.5,-54.06,294.797,0.65
358,buchanan,40,LR,1563081748,94,5.88,-10.05,296.15,3.95
359,tieling,23,CN,1563081749,43,42.29,123.84,302.897,2.81
360,caborca,77,MX,1563081750,55,30.58,-111.1,302.04,12.06
361,magistralnyy,67,RU,1563081750,34,56.17,107.45,297.797,2.69
362,emerald,53,AU,1563081644,34,-23.53,148.16,292.15,6.7
363,makhu,90,IN,1563081751,88,31.11,74.97,297.15,3.1
364,arrah,75,IN,1563081752,74,25.56,84.66,303.15,3.1
365,magdagachi,84,RU,1563081752,85,53.45,125.8,295.597,2.5
366,julio de castilhos,100,BR,1563081753,98,-29.23,-53.68,288.397,1.71
367,lismore,0,AU,1563081754,25,-28.81,153.28,291.15,3.6
368,dingle,100,PH,1563081755,80,11.0,122.67,301.297,2.97
369,adra,20,ES,1563081756,88,36.75,-3.02,293.15,2.6
370,shinpokh,20,PK,1563081756,55,34.33,71.18,305.15,3.1
371,pangnirtung,96,CA,1563081758,60,66.15,-65.72,281.497,0.43
372,san lawrenz,0,MT,1563081758,65,36.06,14.2,299.26,4.6
373,nanga eboko,100,CM,1563081759,99,4.68,12.37,293.397,1.27
374,taltal,91,CL,1563081759,78,-25.41,-70.49,282.697,0.61
375,bonavista,100,CA,1563081759,93,48.65,-53.11,284.197,6.1
376,yeppoon,74,AU,1563081760,13,-23.13,150.74,294.15,3.1
377,ludvika,32,SE,1563081760,93,60.15,15.18,288.71,1.5
378,san patricio,100,PY,1563081761,96,-26.98,-56.83,290.997,1.67
379,sukpak,99,RU,1563081762,50,51.65,94.27,295.797,4.12
380,marzuq,42,YE,1563081762,22,14.4,46.47,304.597,3.07
381,bulgan,71,MN,1563081737,65,48.81,103.53,295.197,3.99
382,iskateley,61,RU,1563081763,56,67.68,53.15,290.897,4.05
383,huehuetan,99,MX,1563081764,89,15.02,-92.38,297.197,1.94
384,reconquista,100,AR,1563081765,90,-29.14,-59.64,286.897,3.02
385,manawar,87,IN,1563081765,56,22.23,75.09,303.497,9.21
386,payakumbuh,63,ID,1563081766,67,-0.23,100.63,299.497,1.11
387,srandakan,5,ID,1563081767,76,-7.94,110.25,297.397,9.27
388,lazi,0,HR,1563081767,68,45.57,14.64,297.04,2.1
389,peddapalli,96,IN,1563081768,62,18.61,79.38,303.597,6.47
390,catanzaro,20,IT,1563081768,83,38.91,16.6,295.37,2.1
391,yulara,0,AU,1563081682,30,-25.24,130.99,288.15,6.7
392,te anau,100,NZ,1563081769,80,-45.41,167.72,278.297,2.13
393,cayenne,0,GF,1563081770,94,4.94,-52.33,297.15,0.9
394,rio grande,71,BR,1563081845,90,-32.03,-52.1,282.997,1.62
395,margate,75,AU,1563081846,65,-43.03,147.26,280.15,8.7
396,padang,47,ID,1563081846,79,-0.92,100.36,301.297,5.33
397,zhanakorgan,0,KZ,1563081847,10,43.91,67.25,311.497,9.51
398,huarmey,71,PE,1563081847,86,-10.07,-78.15,289.897,7.19
399,jinchang,100,CN,1563081848,34,38.52,102.19,291.797,1.72
400,flinders,22,AU,1563081849,46,-34.58,150.85,287.59,12.3
401,tianpeng,15,CN,1563081849,62,28.88,112.34,303.397,1.3
402,lovozero,100,RU,1563081850,88,68.01,35.02,279.697,2.34
403,lisakovsk,10,KZ,1563081850,36,52.55,62.49,303.097,5.2
404,coruripe,29,BR,1563081851,95,-10.12,-36.18,293.297,0.84
405,nouadhibou,0,MR,1563081851,83,20.93,-17.03,294.15,9.3
406,jardim,9,BR,1563081852,61,-21.48,-56.15,291.397,0.79
407,camacupa,0,AO,1563081852,37,-12.02,17.48,284.697,1.04
408,nantucket,1,US,1563081693,83,41.28,-70.1,296.15,3.6
409,talnakh,90,RU,1563081853,87,69.49,88.39,286.15,4.0
410,punta cardon,31,VE,1563081854,85,11.61,-70.22,299.297,11.23
411,gidam,92,IN,1563081855,86,18.98,81.4,298.397,3.08
412,hobro,90,DK,1563081855,93,56.64,9.79,287.04,3.6
413,warren,1,US,1563081805,73,42.48,-83.03,297.15,3.6
414,banff,66,CA,1563081856,92,51.18,-115.57,277.697,0.6
415,vila velha,0,BR,1563081856,78,-3.71,-38.6,298.15,3.1
416,okhotsk,100,RU,1563081857,83,59.36,143.24,287.197,7.35
417,sidi ali,0,DZ,1563081857,62,36.1,0.42,297.297,4.65
418,chapais,90,CA,1563081858,82,49.78,-74.86,288.15,4.1
419,xuddur,100,SO,1563081858,61,4.12,43.89,298.797,8.75
420,lexington,20,US,1563081792,73,38.05,-84.5,298.15,4.6
421,chunskiy,100,RU,1563081859,51,56.08,99.63,295.697,0.43
422,vostok,99,RU,1563081860,71,46.45,135.83,293.297,2.16
423,verkhnetulomskiy,75,RU,1563081860,93,68.61,31.8,279.15,2.0
424,ust-kalmanka,13,RU,1563081861,46,52.12,83.31,298.897,7.04
425,shumskiy,100,RU,1563081861,99,54.83,99.13,285.897,1.16
426,petropavlovsk-kamchatskiy,0,RU,1563081862,68,53.05,158.65,291.15,6.0
427,lockport,40,CA,1563081862,83,50.09,-96.94,296.15,4.6
428,palimbang,75,PH,1563081863,62,14.9,120.78,305.15,1.0
429,eirunepe,54,BR,1563081863,98,-6.66,-69.87,294.297,0.72
430,hobyo,100,SO,1563081864,54,5.35,48.53,302.297,9.44
431,ostrovnoy,90,RU,1563081864,82,68.05,39.51,280.397,4.1
432,brunswick,75,DE,1563081865,93,52.26,10.53,287.04,2.6
433,ballinasloe,0,IE,1563081865,94,53.33,-8.22,284.197,1.33
434,mitchell,1,US,1563081866,78,43.71,-98.03,298.15,4.1
435,oranjemund,0,ZA,1563081866,91,-28.55,16.43,285.597,3.98
436,makakilo city,20,US,1563081867,54,21.35,-158.09,302.15,7.2
437,taoudenni,0,ML,1563081868,34,22.68,-3.98,306.297,4.44
438,comodoro rivadavia,0,AR,1563081868,57,-45.87,-67.48,282.15,4.1
439,meulaboh,77,ID,1563081679,69,4.14,96.13,301.597,0.73
440,lagunillas,100,VE,1563081869,81,8.5,-71.39,291.997,1.59
441,adrar,0,DZ,1563081869,8,27.87,-0.29,303.15,4.1
442,vila franca do campo,75,PT,1563081870,94,37.72,-25.43,294.15,2.1
443,san cristobal,15,HN,1563081871,92,14.68,-86.92,291.997,2.84
444,mokhsogollokh,19,RU,1563081871,39,61.4,128.95,303.597,0.66
445,kodiak,1,US,1563081872,39,39.95,-94.76,299.15,2.1
446,praia,0,BR,1563081872,87,-20.25,-43.81,286.15,0.4
447,gerash,75,IR,1563081873,34,27.67,54.14,308.15,2.1
448,rocha,2,UY,1563081786,96,-34.48,-54.34,279.297,1.75
449,shirokiy,63,RU,1563081875,68,53.87,39.17,289.26,1.59
450,caraballeda,40,VE,1563081875,73,10.61,-66.85,298.15,2.28
451,den helder,90,NL,1563081838,93,52.96,4.76,288.15,2.6
452,santo tomas,75,PH,1563081876,74,7.53,125.62,302.15,4.1
453,ternovka,19,RU,1563081877,73,51.69,41.59,291.397,2.31
454,galiakot,69,IN,1563081877,54,23.54,74.01,304.397,9.15
455,balashov,51,RU,1563081878,75,51.54,43.17,292.59,0.89
456,becal,75,MX,1563081878,65,20.44,-90.03,301.15,5.1
457,ust-nera,54,RU,1563081879,36,64.57,143.24,297.697,3.1
458,limbang,75,BN,1563081879,66,4.75,115.01,303.15,5.7
459,evensk,41,RU,1563081880,78,61.92,159.24,288.897,3.25
460,pueblo,1,US,1563081880,36,38.25,-104.61,299.15,6.2
461,guane,83,CU,1563081881,76,22.2,-84.09,301.097,2.85
462,puqi,79,CN,1563081881,71,29.72,113.88,301.897,0.66
463,luanda,99,AO,1563081882,94,-8.83,13.24,293.15,2.1
464,pierre,1,US,1563081620,83,44.37,-100.35,297.04,4.1
465,turukhansk,66,RU,1563081643,58,65.8,87.96,291.597,5.51
466,dryden,1,CA,1563081883,72,49.79,-92.84,292.15,3.1
467,aksarka,81,RU,1563081884,68,66.56,67.8,297.897,7.13
468,manhattan,1,US,1563081884,88,39.18,-96.57,297.59,2.98
469,umea,100,SE,1563081732,76,63.83,20.26,287.15,1.0
470,palmas,0,BR,1563081885,68,-10.18,-48.33,293.15,1.5
471,plouzane,90,FR,1563081886,93,48.38,-4.62,288.15,2.1
472,mosquera,75,CO,1563081657,67,4.71,-74.23,287.15,2.6
473,plymouth,40,GB,1563081886,93,50.37,-4.14,288.15,2.1
474,mountain home,40,US,1563081887,28,43.13,-115.69,302.15,2.6
475,chifeng,6,CN,1563081887,34,42.27,118.96,300.097,3.6
476,saint anthony,75,US,1563081888,43,43.97,-111.68,295.15,9.8
477,takoradi,16,GH,1563081888,95,4.89,-1.75,294.297,0.87
478,hranice,20,CZ,1563081889,82,49.55,17.73,289.82,2.6
479,shimoda,75,JP,1563081890,94,34.7,138.93,299.26,3.6
480,mapiri,67,BO,1563081890,88,-15.31,-68.22,281.897,1.92
481,kodinsk,100,RU,1563081891,25,58.6,99.18,302.597,2.17
482,santa maria del oro,69,MX,1563081891,52,25.95,-105.37,295.097,0.21
483,nazca,29,PE,1563081892,92,-14.83,-74.94,284.197,3.73
484,san ignacio,90,PE,1563081892,98,-5.15,-79.0,288.397,0.59
485,araouane,91,ML,1563081893,47,18.9,-3.53,304.197,7.35
486,kungsbacka,74,SE,1563081893,94,57.49,12.08,289.82,1.34
487,providencia,80,CO,1563081894,88,1.24,-77.6,284.497,1.51
488,oyama,90,JP,1563081894,94,36.31,139.8,297.04,5.7
489,pangody,97,RU,1563081895,43,65.85,74.49,296.897,10.31
490,victoria,75,BN,1563081895,70,5.28,115.24,303.15,1.5
491,talcahuano,90,CL,1563081897,93,-36.72,-73.12,284.15,2.1
492,bilma,8,NE,1563081897,28,18.69,12.92,305.097,2.56
493,sergeyevka,0,KZ,1563081898,57,53.88,67.42,298.797,4.95
494,manado,20,ID,1563081898,58,1.49,124.85,304.15,3.6
495,laurel,0,US,1563081899,100,39.1,-76.85,299.26,1.13
496,pahrump,1,US,1563081818,10,36.21,-115.98,309.26,4.6
497,vizinga,31,RU,1563081899,44,61.08,50.08,292.897,1.31
498,nemuro,75,JP,1563081820,100,43.32,145.57,289.15,4.1
499,teguldet,0,RU,1563081901,42,57.31,88.17,298.097,4.7
500,san juan de los morros,65,VE,1563081893,96,9.91,-67.35,292.297,1.03
501,bathsheba,40,BB,1563081902,74,13.22,-59.52,300.15,5.7
502,manokwari,92,ID,1563081638,72,-0.87,134.08,298.297,1.73
503,honningsvag,100,NO,1563081903,83,70.98,25.97,280.397,2.7
504,la ciotat,0,FR,1563081904,52,43.17,5.6,296.48,3.1
505,morro bay,1,US,1563081904,87,35.37,-120.85,294.26,2.1
506,xaltocan,100,MX,1563081905,92,19.42,-98.21,284.097,1.13
507,thinadhoo,5,MV,1563081905,76,0.53,72.93,301.997,5.55
508,straumen,75,NO,1563081618,71,63.87,11.3,284.26,5.1
509,quatre cocos,40,MU,1563081906,56,-20.21,57.76,296.15,3.6
510,thayetmyo,100,MM,1563081907,86,19.32,95.18,299.497,1.57
511,asmara,51,ER,1563081907,77,15.34,38.93,295.897,2.01
512,abu samrah,0,SY,1563081908,54,35.3,37.18,298.797,2.49
513,aqtobe,0,KZ,1563081908,61,50.28,57.21,299.15,3.0
514,agbor,37,NG,1563081909,99,6.26,6.15,294.097,0.78
515,douglas,90,US,1563081909,87,58.28,-134.39,288.71,3.1
516,shimanovsk,91,RU,1563081910,71,52.0,127.67,298.397,0.63
517,vardo,1,US,1563081910,88,39.62,-77.74,297.15,1.5
518,kewanee,1,US,1563081910,94,41.25,-89.92,299.15,1.62
519,ripoll,20,ES,1563081911,93,42.2,2.19,295.93,0.78
520,matay,0,EG,1563081912,35,28.42,30.79,300.397,4.65
521,livingston,1,US,1563081912,94,32.58,-88.19,297.15,2.56
522,pyaozerskiy,92,RU,1563081913,89,65.83,31.17,280.997,4.19
523,otake,90,JP,1563081913,88,34.2,132.22,298.71,1.5
524,soledade,75,BR,1563081914,94,-7.06,-36.37,294.15,1.0
525,dickinson,1,US,1563081617,78,46.88,-102.79,297.04,3.1
526,baoying,1,CN,1563081915,47,33.24,119.31,305.897,0.61
527,the pas,75,CA,1563081915,93,53.82,-101.24,289.15,1.0
528,boddam,90,GB,1563081916,82,57.47,-1.78,286.15,4.1
529,kang,0,BW,1563081916,27,-23.67,22.79,282.297,4.45
530,tucupita,3,VE,1563081917,98,9.06,-62.05,295.597,1.77
531,le pradet,0,FR,1563081917,82,46.44,1.83,288.15,4.6
532,basoko,0,CD,1563081918,77,1.23,23.61,296.397,0.92
533,whitehorse,75,CA,1563081856,67,60.72,-135.06,290.15,1.47
534,sorong,50,ID,1563081919,66,-0.86,131.25,300.597,5.61
535,willemstad,35,GY,1563081919,97,6.33,-57.57,295.697,1.37
536,jambi,20,ID,1563081920,49,-1.6,103.62,306.297,1.99
537,kollam,40,IN,1563081920,78,8.88,76.6,301.15,3.6
538,tallahassee,1,US,1563081922,100,30.44,-84.28,300.15,1.33
539,rafai,100,CF,1563081922,96,4.95,23.92,294.197,0.72
540,kiunga,67,PG,1563081923,61,-6.12,141.3,301.897,1.0
541,plettenberg bay,0,ZA,1563081923,64,-34.05,23.37,285.497,2.31
542,haines junction,100,CA,1563081924,77,60.75,-137.51,282.597,2.46
